<<<<<<< HEAD
[
  {"id": "C001", "location": "OMR Phase 1 near Perungudi", "zone": "south", "lat": 12.9716, "lng": 80.2426, "severity": "high", "dept": "CMRL", "description": "Chennai Metro Phase 2 underground tunnel work", "expected_clear": "2026-12-01"},
  {"id": "C002", "location": "Arcot Road Vadapalani", "zone": "west", "lat": 13.0514, "lng": 80.1757, "severity": "medium", "dept": "CMWSSB", "description": "Underground water pipeline replacement", "expected_clear": "2026-04-10"},
  {"id": "C003", "location": "Kamarajar Salai near Napier Bridge", "zone": "central", "lat": 13.0820, "lng": 80.2889, "severity": "low", "dept": "GCC", "description": "Road resurfacing and divider work", "expected_clear": "2026-04-06"},
  {"id": "C004", "location": "Poonamallee Bypass", "zone": "west", "lat": 13.0481, "lng": 80.1309, "severity": "high", "dept": "NHAI", "description": "NH-48 flyover expansion work", "expected_clear": "2026-08-01"},
  {"id": "C005", "location": "Anna Nagar 2nd Avenue", "zone": "north", "lat": 13.0891, "lng": 80.2099, "severity": "low", "dept": "GCC", "description": "Stormwater drain laying", "expected_clear": "2026-04-07"}
=======
[
  {"id": "C001", "location": "OMR Phase 1 near Perungudi", "zone": "south", "lat": 12.9716, "lng": 80.2426, "severity": "high", "dept": "CMRL", "description": "Chennai Metro Phase 2 underground tunnel work", "expected_clear": "2026-12-01"},
  {"id": "C002", "location": "Arcot Road Vadapalani", "zone": "west", "lat": 13.0514, "lng": 80.1757, "severity": "medium", "dept": "CMWSSB", "description": "Underground water pipeline replacement", "expected_clear": "2026-04-10"},
  {"id": "C003", "location": "Kamarajar Salai near Napier Bridge", "zone": "central", "lat": 13.0820, "lng": 80.2889, "severity": "low", "dept": "GCC", "description": "Road resurfacing and divider work", "expected_clear": "2026-04-06"},
  {"id": "C004", "location": "Poonamallee Bypass", "zone": "west", "lat": 13.0481, "lng": 80.1309, "severity": "high", "dept": "NHAI", "description": "NH-48 flyover expansion work", "expected_clear": "2026-08-01"},
  {"id": "C005", "location": "Anna Nagar 2nd Avenue", "zone": "north", "lat": 13.0891, "lng": 80.2099, "severity": "low", "dept": "GCC", "description": "Stormwater drain laying", "expected_clear": "2026-04-07"}
>>>>>>> b5969d478d9be1b63c90fb9d8edca3f246b56a79
]